id;Name;Latitude;Longitude;Height (m);Active
154860;Abelvattnet Aut;65.53;14.97;665;No
188800;Abisko;68.3557;18.8206;388;Yes
188790;Abisko;68.3538;18.8164;392303;Yes
158990;Abraur;65.9857;18.9195;368079;Yes
85600;Adelsnäs;58.1998;15.9802;97;No
97280;Adelsö A;59.3579;17.5213;5.612;Yes
92480;Adolfsfors;59.8;12.2333;125;No
117330;Agö;61.55;17.4666;20;No
178740;Aktse;67.1498;18.3061;530;No
75040;Allgunnen;57.0666;15.9681;115;No
99090;Almagrundet A;59.1547;19.1298;3;No
134590;Almdalen;63.9967;14.6701;615;Yes
53640;Alnarp;55.65;13.0833;10;No
53390;Alnarp Fruit Department;55.6571;13.0923;10;No
178790;Aluokta;67.3094;18.9011;385;No
82000;Alvhem;58.0067;12.1454;5;No
73250;Ambjörnarp;57.4166;13.2833;220;No
156990;Ammarnas;65.9744;16.2283;440;No
74600;Aneboda II;57.1167;14.5639;195;No
74510;Aneby;57.8232;14.8913;240;No
144530;Ankarvattnet;64.8666;14:25;460;No
95230;Arboga;59.3833;15.8333;50;No
167710;Arjeplog A;66.0513;17.8396;430839;Yes
97390;Arlanda;59.66;17.9208;26;No
53770;Arlow leaves sugar;55.6333;13.0667;3;No
159880;Arvidsjaur A;65.5941;19.2642;382.45;Yes
92400;Arvika;59.6658;12591;77;No
92410;Arvika A;59.6743;12.6354;65758;Yes
97630;Aske;59.6166;17.65;15;No
84660;Askersund;58.88;14.9;100;No
94370;Asphyttan;59.6112;14.1859;130;No
106070;Avesta;60.1413;16.1715;99043;Yes
84340;Axle steel Mo;58.5719;14.5722;91;Yes
105550;Reverse;60923;15.1145;230;No
139570;Balsjö;63925;19.0611;195;No
97260;Barkarby;59.4166;17.8833;17;No
62180;Barkåkra;56.2979;12.8441;18;Yes
82540;Bastorp;58904;12038;150;No
97190;Beckomberga;59.3658;17.8974;15;No
125470;Bensjö;62.7139;15.4667;310;No
74080;Mountain;57121;14.6931;250;Yes
98610;Berga;59.0833;18.1166;15;No
98040;Berga Mo;59.0688;18.1184;4;Yes
96610;Bie;59083;16.2135;21;No
136020;Bispgården;63.0509;16.5358;190;No
106080;Bjurfors;60.1316;16.1282;125;No
116650;Bjuråker;61.85;16.5833;66;No
151290;Bjuröklubb;64.4806;21.5787;36;No
151280;Bjuröklubb A;64.4799;21.5754;35.41;Yes
85160;Bjärka- Säby;58.2662;15.7431;100;No
53650;Björka;55.7;13.6333;32;No
142030;Björkede;64.0432;12.9414;451;No
163680;Björkfors;65.9166;23.4666;10;No
107040;Björklinge;60.0514;17.5667;31;No
178820;Björkudden;67.3956;18.7156;376;Yes
83640;bear farm;58.5166;13.0666;75;No
155710;Blaikliden;65.0464;15.7486;520;No
75140;blank Power;57.2166;15.9166;80;No
92170;Blomskog;59.2891;12.0542;110;No
92130;Flower Forest A;59.2213;12.0754;169645;Yes
132110;The Blue Hammer A;63.1854;12.1734;1086.952;Yes
78050;Bobbenarve;57.0333;18.2833;8;No
161940;Boden Mo;65.8151;21.6396;25;Yes
170630;Bodträskfors;66.0792;20925;30;No
155900;Boksjö;65.6772;15.8245;475;No
72400;Bollebygd;57661;12.5521;65;No
54300;Bollerup;55.4926;14.0395;57568;Yes
83170;Borgunda;58288;13.7995;181;No
105310;Borlange;60502;15.4606;120;No
105280;Borlänge Aut;60.4889;15.4324;140;No
105260;Borlänge Airport;60.4294;15.5079;152;Yes
72450;Boras;57.7611;12.9493;135;Yes
102390;Brattmon V;60.7569;12.7723;199;No
138270;Bredbyn;63.4608;18.0592;85;No
91130;Bredviken;59.2184;11.9858;100;No
96640;Broddbo;59.9829;16.4634;31;No
106040;Brovallen;60.0989;16.3026;100154;Yes
92370;Brunsberg;59.6166;12.9833;70;No
127130;Brämön A;62.2198;17739;18:13;Yes
161930;Brännbergs experimental farm;65.8;21.2666;88;No
145450;Brännåkersfjället V;64.7507;15.8307;630;No
82640;Brålanda;58.5666;12.3666;65;No
157870;Lake Bures A;65558;17.8554;394.05;Yes
78240;Buttle;57.4034;18.5297;45;No
133030;Bydalen V;63044;13.8907;1000;No
150210;Bygdsiljum;64.35;20.5;131;No
84620;Bällefors;58.5833;14.1166;90;No
62600;Bastad;56.45;12.7974;9;Nej
136610;Bölestrand;63.1333;16.15;220;Nej
123460;Börtnan A;62.7548;13.8427;467.246;Ja
94390;Daglösen A;59.6612;14.1803;133.077;Ja
115630;Dalfors;61.2139;15.4083;236;Nej
160600;Dalliden;65.0157;20.3127;330;Nej
73430;Dalsjöfors;57.722;13.1238;257;Nej
115040;Dalstuga;61.0666;15.7;240;Nej
156850;Danasjö;65.5374;16.5393;652;Nej
107120;Dannemora;60.2026;17.9049;41;Nej
94140;Degerfors;59.2333;14.45;85;Nej
116480;Delsbo;61.7854;16.5505;88;Nej
116490;Delsbo A;61.8264;16.5385;70.667;Ja
156770;Dikanäs;65.2337;16.0018;484;Nej
156790;Dikanäs Skansnäs;65.3235;16.0353;525;Nej
81320;Dingle;58.5289;11.5724;20;Nej
91370;Djurskog;59.6072;11.9321;280;Nej
105640;Domnarvet;60.5;15.45;128;Nej
75120;Drageryd;57.2001;15.9666;77;Nej
123060;Dravagen A;62.0936;13.6086;566.642;Ja
96120;Dunker;59.1469;16.8536;35;Nej
132240;Duved;63.4;12.9333;385;Nej
116240;Dönje;61.395;16.4145;85;Nej
103050;Edebäck;60.0666;13.55;155;Nej
132590;Edevik;63.9812;12.8709;425;Ja
115230;Edsbyn;61.3784;15.8352;161;Nej
115220;Edsbyn A;61.3607;15.7144;183.648;Ja
62530;Eftra-Broen V;56.8625;12.6628;10;Nej
107440;Eggegrund A;60.7298;17.5584;3.731;Ja
53710;Ekebo;55.95;13.1333;80;Nej
64330;Ekefors;56.5546;14.7571;145;Nej
66470;Ekerum;56.7849;16.5812;40;Nej
96140;Eklången;59.2358;16.7429;35;Nej
98630;Ekskogen;59.633;18.2298;4;Nej
97370;Enköping Mo;59.6557;17.1121;26;Ja
82380;Erikstad;58.6336;12.4129;65;Nej
82350;Erikstad-Bergarud V;58.6003;12.413;59;Nej
96230;Eskilstuna;59.3867;16.4647;8;Nej
96190;Eskilstuna A;59.3821;16.4526;12.577;Ja
181970;Esrange;67.8911;21.0846;328;Ja
63470;Exens flygplats;56.6778;13.7792;127;Nej
98640;Experimentalfältet;59.3664;18.0633;14;Nej
72120;Fagered;57.1978;12.8129;100;Nej
107330;Fagerviken;60.542;17.7478;5;Nej
86090;Falerum;58.1425;16.2102;80;Nej
62520;Falkenberg;56.8994;12.4798;5;Nej
83090;Falköping;58.1584;13.5397;205;Nej
52230;Falsterbo;55.3836;12.8203;5;Ja
52240;Falsterbo A;55.3837;12.8166;1.575;Ja
105370;Falun-Lugnet;60.619;15.6603;140;Ja
98620;Farsta;59.3165;18.3664;6;Nej
162800;Farstugrunden Aut;65.33;22.75;1;Nej
95320;Fellingsbro-Finnåker;59.5345;15.5857;51;Nej
94430;Filipstad;59.7166;14.1666;141;Nej
107140;Film A;60.2358;17.9043;33.381;Ja
107130;Films Kyrkby;60.2357;17.9072;39;Nej
125020;Finneby;62.0424;15.4655;259;Nej
118610;Finngrundets Fyrskepp;61.0666;18.6833;5;Nej
85410;Finspång;58.7104;15.8215;41;Nej
122360;Fjällnäs;62.5772;12.2223;780;Nej
136491;Fjällsjö;63.7972;16.4056;215;Nej
74420;Flahult;57.6898;14.1455;224;Nej
104390;Flaten;60.651;14.4277;296;Nej
122430;Flatruet V;62.7291;12.7264;932;Nej
96040;Floda A;59.0558;16.3944;31.337;Ja
112510;Flötningen;61.8526;12.2689;670;Nej
106100;Folkärna;60.169;16.3125;68;Nej
137080;Forse;63.1461;17.0223;125.604;Ja
93580;Forshult;59.9445;13.5335;110;Nej
148050;Fredrika;64.0763;18.419;300;Nej
148040;Fredrika A;64.0744;18.3619;327.684;Ja
104090;Fredriksberg;60.1417;14.3909;304.749;Ja
126630;Fränsta;62.5;16.1833;110;Nej
126300;Fränsta II;62.5165;16.2084;110;Nej
63530;Fröslida;56.8666;13.0666;70;Nej
134110;Frösön;63.1974;14.4863;376;Ja
134130;Frösön D;63.1947;14.4898;375;Nej
151550;Furuögrund;64.9112;21.2263;10;Nej
73390;Fägerhult;57.6468;13.2369;170;Nej
84390;Fägre;58.6493;14.1265;95;Nej
160740;Fällfors;65.1317;20.7891;195;Nej
160750;Fällfors Mo;65.1089;20.7652;195;Nej
79580;Fårö;57.8987;19.1592;8;Nej
78550;Fårösund Ar A;57.9165;18.9533;12.756;Ja
134410;Föllinge A;63.6761;14.6048;361.8;Ja
134460;Föllinge-Vägskälet;63.7606;14.4323;475;Nej
94410;Gammalkroppa;59.6833;14.3166;200;Nej
82030;Garn;58.0492;12.1563;15;Nej
82110;Gendalen;58.1582;12.6448;87.63;Ja
63340;Genevad;56.5684;13.0338;20;Nej
155790;Gielas A;65.3269;15.0645;578.328;Ja
73170;Gislaved;57.2847;13.5324;165;Nej
135640;Gisselås;63.7;15.3666;320;Nej
76420;Gladhammar A;57.7068;16.4526;35.277;Ja
62550;Glommen;56.9303;12.3579;6;Nej
159770;Glommersträsk;65.2764;19.6839;394.387;Ja
85450;Godegård;58.7936;15.1694;130;Nej
89240;Gotska Sandön;58.3928;19.197;12;Nej
89230;Gotska Sandön A;58.3939;19.194;15.911;Ja
127600;Gran;62.0166;17.6333;20;Nej
103290;Granåbron;60.4403;13.8944;310;Nej
72070;Grimeton;57.1088;12.394;35;Nej
112170;Grundforsen;61.2797;12.8568;412;Nej
108300;Grundkallen;60.5;18.8666;23;Nej
105030;Grängesberg (fördelningsstation);60.0825;15.02;300;Nej
84610;Gränna;58.0333;14.4666;130;Nej
105360;Gråda Kraftverk;60.6046;15.0146;155;Nej
95380;Grönbo;59.6396;15.418;85;Nej
99150;Grönskär;59.2792;19.0306;9;Nej
122610;Grövelsjön;62.0991;12.3153;815;Nej
145130;Gubbhögen A;64.2172;15.5529;310.221;Ja
147570;Gunnarn;65.0074;17.7085;280;Nej
147560;Gunnarn A;65.0094;17.6993;275.491;Ja
76430;Gunnebo;57.7166;16.5333;18;Nej
87360;Gustaf Dalen A;58.5929;17.4704;25;Nej
98180;Gustavsberg;59.3226;18.3725;10;Nej
103090;Gustavsfors;60.1514;13.7975;190;Ja
103100;Gustavsfors A;60.1533;13.799;187.153;Ja
125490;Gustavsnäs D;62.8108;15.9333;300;Nej
172740;Gyljen;66.3792;22.7139;50;Nej
106170;Gysinge;60.2836;16.8857;63;Nej
144300;Gäddede;64.5037;14.1596;328;Nej
144310;Gäddede A;64.5044;14.2207;553.025;Ja
180760;Gällivare A;67.1407;20.6413;358.975;Ja
180740;Gällivare Flygplats;67.1358;20.8144;312;Nej
54650;Gärsnäs;55.55;14.1833;45;Nej
106670;Gästrike-Hammarby I;60.5501;16.5833;70;Nej
106680;Gästrike-Hammarby II;60.5502;16.5833;70;Nej
106690;Gästrike-Hammarby III;60.5503;16.5833;70;Nej
106630;Gästrike-Hammarby IV;60.55;16.5833;70;Nej
107400;Gävle;60.6537;17.1693;16;Nej
107420;Gävle A;60.7161;17.1607;16.125;Ja
84520;Gårdsjö A;58.8768;14.3875;210.675;Ja
74350;Gödeberg;57.5666;14.6333;350;Nej
72630;Göteborg;57.6996;11.9673;30;Nej
71420;Göteborg A;57.7156;11.9924;3.038;Ja
74180;Hagshult Mo;57.2926;14.1399;169;Ja
62260;Hallands Väderö A;56.4496;12.5453;9.172;Ja
135460;Hallhåxåsen A;63.7685;15.3279;375.391;Ja
135440;Hallviken;63.73;15.5;337;Nej
62400;Halmstad;56.6737;12.9242;24;Ja
62390;Halmstad;56.675;12.9247;25;Nej
62410;Halmstad Flygflottilj;56.6833;12.8333;30;Nej
62420;Halmstad flygplats;56.6667;12.85;4;Nej
54310;Hammenhög;55.5049;14.1589;50;Nej
114410;Hamra A;61.6599;14.9918;453.588;Ja
64020;Hanö A;56.0135;14.8463;58.622;Ja
163950;Haparanda;65.8367;24.113;5;Nej
163960;Haparanda A;65.8237;24.1112;13.243;Ja
170670;Harads;66.0833;20.9666;35;Nej
161780;Haraholmen;65.2391;21.6317;4;Nej
108600;Harg;60.1829;18.3964;15;Nej
180710;Harrträsk;67.0333;20.7;410;Nej
87150;Harstena;58.2502;17.0095;5;Nej
87140;Harstena A;58.2505;17.0106;14;Ja
62080;Hasslarp;56.1333;12.8166;10;Nej
123250;Hede;62.4107;13.5184;430;Nej
74410;Hedenstorp;57.7653;14.1111;210;Nej
123340;Hedeviken;62.4112;13.6748;410;Ja
161650;Hednoret;65.8333;21.55;27;Nej
62030;Helsingborg;56.0431;12.6906;5;Nej
62040;Helsingborg A;56.0304;12.7653;43;Ja
155940;Hemavan;65.821;15.086;482.03;Nej
155970;Hemavan Flygplats;65.8077;15.0854;458;Ja
155960;Hemavan-Gierevarto A;65.7813;15.0623;793.504;Ja
138400;Hemling;63.6574;18.5318;190;Nej
138390;Hemling A;63.6503;18.5466;182.186;Ja
78140;Hemse;57.2437;18.3788;22.072;Ja
85210;Herrberga;58.3935;15.2184;90;Nej
78250;Herrvik;57.4208;18.9174;5;Nej
73230;Hestra D;57.4669;13.6319;220;Ja
52560;Hilleshög;55.925;12.8472;60;Nej
68550;Hoburg;56.9222;18.1471;38;Nej
68560;Hoburg A;56.9209;18.1506;34.118;Ja
86200;Holma;58.3339;16.8157;5;Nej
140360;Holmögadd A;63.5949;20.7565;6;Nej
140460;Holmön A;63.807;20.8645;6.535;Ja
75520;Horn A;57.8861;15.8623;89.822;Ja
146070;Hoting;64.1236;16.2149;240;Nej
146050;Hoting A;64.0875;16.2356;241.55;Ja
81370;Hud V;58.6608;11.4178;95;Nej
117440;Hudiksvall;61.7167;17.086;5;Ja
75410;Hultsfred;57.4931;15.8528;109;Nej
125450;Hunge;62.754;15.0921;342;Nej
125440;Hunge A;62.7504;15.0845;343.238;Ja
62250;Hunnestorp V;56.404;12.9436;159;Nej
98290;Husarö;59.5052;18.8417;10;Nej
74480;Huskvarna;57.7865;14.2874;99;Ja
88590;Huvudskär;58.9639;18.5708;5;Nej
89560;Huvudskär Ost A;58.9334;19.1833;4;Nej
149700;Hällnäs;64.3088;19.6293;245;Nej
149710;Hällnäs Skogsskola;64.3333;19.5;175;Nej
149160;Hällnäs-Lund;64.2684;19.6314;181;Nej
83190;Hällum A;58.3218;13.0379;70.071;Ja
128370;Härnö;62.6183;18.0618;10;Nej
127380;Härnösand;62.6364;17.9214;17.655;Ja
85180;Härsnäs;58.2884;15.2336;126.803;Ja
97610;Hässelby;59.3727;17.8197;25;Nej
75380;Hässleby;57.6295;15.5725;190;Nej
63080;Hässleholm;56.1367;13.7445;50;Nej
63160;Hästveda Mo;56.2799;13.9432;103;Ja
81630;Hållö;58.3333;11.2166;16;Nej
91520;Hångstad;59.8633;11.9746;130;Nej
62160;Höganäs;56.1917;12.6014;5;Nej
145340;Högland;64.5666;15.9166;401;Nej
133050;Höglekardalen;63.0785;13.7488;594.865;Ja
95020;Högsjö;59.0297;15.6858;69;Nej
83610;Högstena;58.2333;13.7166;211;Nej
91660;Högsäter;59.88;11.97;135;Nej
162970;Högsön;65.8849;22.3961;8;Nej
151240;Hökmarksberget V;64.4358;21.28;92;Nej
53630;Hököpinge;55.5;13.0166;17;Nej
117370;Hölick;61.6239;17.4401;5;Nej
102540;Höljes;60.9066;12.5843;230;Ja
53530;Hörby A;55.8633;13.6662;113.388;Ja
105230;Idkerberget;60.3758;15.231;260;Nej
112540;Idre Fjäll A;61.8886;12.8521;869.407;Ja
147270;Idvattnet;64.4542;17.0794;352;Nej
115460;Johannesberg;61.8578;15.2128;510;Nej
169880;Jokkmokk;66.6135;19.8316;240;Nej
170860;Jokkmokk Flygplats Mo;66.499;20.131;275;Ja
62560;Jonstorp;56.931;12.5514;25;Nej
53250;Jordberga;55.4114;13.4001;40;Nej
143440;Jormlien;64.7291;13.9819;383.088;Ja
136420;Junsele;63.6845;16.9508;215;Nej
136410;Junsele A;63.6839;16.95;218.766;Ja
166810;Jäckvik;66.3874;16.9714;433.56;Ja
167800;Jäkkvik V;66.3242;17.0944;552;Nej
126480;Järkvissle;62.8166;16.6833;90;Nej
139260;Järnäsklubb A;63.4351;19.6731;5.928;Ja
133240;Järpströmmen;63.3903;13.3845;386.652;Nej
116430;Järvsö;61.7111;16.1667;140;Ja
74470;Jönköping;57.7666;14.1833;98;Nej
74460;Jönköpings Flygplats;57.7514;14.0733;226;Ja
74450;Jönköpings Gamla Flygplats;57.75;14.17;98;Nej
163940;Kalix;65.85;23.2;6;Nej
66430;Kalmar;56.727;16.2944;15;Nej
66420;Kalmar Flygplats;56.6784;16.2922;6;Ja
168910;Karats;66.6932;18.8146;414;Nej
192830;Karesuando;68.4421;22.4502;330;Nej
192840;Karesuando A;68.4418;22.4435;329.68;Ja
84310;Karlsborg Mo;58.514;14.5102;95;Ja
76090;Karlshammar;57.15;16.45;8;Nej
64130;Karlshamn;56.1813;14.8517;50;Ja
65090;Karlskrona-Söderstjerna Mo;56.1498;15.5921;2;Ja
93250;Karlstad;59.384;13.4455;80;Nej
93230;Karlstad Aut;59.361;13.4728;46;Nej
93220;Karlstad Flygplats;59.4446;13.3374;107;Ja
64040;Karpalund;56.05;14.1;4;Nej
139200;Kasa D;63.3266;19.0532;30;Nej
188820;Katterjåkk;68.4218;18.1698;515;Ja
188850;Katterjåkk A;68.4202;18.168;514.248;Ja
189780;Kattuvuoma;68.2833;19.9;355;Nej
106160;Kerstinbo A;60.2683;16.9738;55.695;Ja
85460;Kettstaka A;58.7162;15.0271;224.876;Ja
94190;Kilsbergen-Suttarboda A;59.2996;14.8956;218.353;Ja
75650;Kimramåla;57;15.847;146;Nej
73610;Kinnared;57.0333;13.1166;100;Nej
180960;Kiruna;67.85;20.2333;505;Nej
180940;Kiruna Flygplats;67.827;20.3387;459;Ja
155770;Kittelfjäll;65.25;15.5;560;Nej
83670;Klagstorp;58.3331;13.8804;130;Nej
154720;Klimpfjäll;65.062;14.7908;594;Nej
95530;Kloten;59.8707;15.2544;285;Nej
95540;Kloten A;59.8703;15.2522;283.21;Ja
150640;Klutmark;64.75;20.6333;80;Nej
124320;Klövsjö;62.5335;14.2028;549;Nej
124300;Klövsjöhöjden A;62.4952;14.1542;802.503;Ja
63320;Knäred;56.5216;13.3369;60;Nej
103570;Knås;60.9676;13.8985;280;Nej
82100;Koberg;58.1666;12.4166;78;Nej
63610;Kolleberga;56.0666;13.2666;50;Nej
86420;Kolmården-Strömsfors A;58.6892;16.3069;153.613;Ja
86650;Kolmårdssanatoriet;58.6664;16.3301;90;Nej
182720;Kompelusvaara;67.0919;22.2178;263;Nej
173960;Korpilombolo M;66.8542;23.0571;178;Nej
145280;Korsselbränna;64.4571;15.5423;178;Nej
133500;Korsvattnet A;63.8385;13.5009;716.605;Ja
65510;Kosta Mo;56.8403;15.47;230;Ja
137040;Kramfors-Gistgårdsön;63.0502;17.7658;5;Nej
64030;Kristianstad;56.0133;14.2896;10;Ja
54550;Kristianstad Everöd;55.9245;14.0842;17;Nej
54990;Kristianstad V;56.0239;14.1027;7;Nej
94180;Kristinehamn;59.3102;14.0994;46.71;Ja
148300;Kroksjö;64.5073;17.9934;500;Nej
82360;Kroppefjäll-Granan A;58.6065;12.1973;173.75;Ja
114330;Kräckelbäcken;61.55;14.2;670;Nej
136090;Krångede A;63.1512;16.1699;183.123;Ja
117430;Kuggören A;61.7027;17.5216;8.568;Ja
149610;Kulbäcksliden;64.2;19.5666;200;Nej
62190;Kullen;56.3012;12.454;72;Nej
85390;Kvarn Mo;58.6277;15.4372;72;Ja
114270;Kvarnberg;61.4446;14.8744;434;Nej
167980;Kvikkjokk-Årrenjarka;66.8876;18.0179;314;Nej
167990;Kvikkjokk-Årrenjarka A;66.8874;18.0198;314.692;Ja
83660;Kvänum;58.3165;13.1472;75;Nej
83040;Kymbo V;58.0794;13.785;222;Nej
92630;Kyrkerud;59.3833;12.1166;110;Nej
72140;Källsjö;57.2322;12.7018;153.9;Ja
71510;Kärna;57.8421;11.8049;20.66;Ja
85650;Kärnskogen;58.85;15.2833;108;Nej
53480;Kävlinge;55.8;13.1;30;Nej
98400;Kårsta;59.6575;18.2718;20;Nej
96310;Köping;59.5171;15.9909;10;Nej
53270;Köpinge;55.4575;13.9379;10;Nej
71140;Laesö Ost A;57.1834;11.5332;4;Nej
182930;Lainio;67.7615;22.3518;315;Ja
167730;Laisvallsby;66.1347;17.1748;460;Nej
171790;Lakaträsk A;66.2789;21.1285;185.031;Ja
87450;Landsort;58.7404;17.8655;12.653;Ja
87440;Landsort A;58.7429;17.8684;17.484;Ja
72420;Landvetter Flygplats;57.6764;12.2919;154;Ja
83210;Lanna;58.3476;13.1296;80;Ja
192710;Lannavaara;68.0502;21.9814;630;Nej
171770;Lappträsket;66.2283;21.7881;60;Nej
180770;Latnivaara A;67.2551;20.2704;453.191;Ja
146380;Laxbäcken;64.6389;16.4142;345;Nej
104120;Lejen;60.2;14.4;340;Nej
105450;Leksand;60.7248;15.0143;172.638;Ja
91620;Lennartsfors;59.3;11.9333;125;Nej
65450;Lessebo;56.7486;15.2747;170;Nej
83320;Lidköping;58.4666;13.1166;50;Nej
103600;Likenäs;60.6496;13.014;160;Nej
114510;Lillhärdal;61.8547;14.0921;440;Nej
166940;Lillviken-Roparudden V;66.486;16.4173;483;Nej
95350;Lindesberg;59.5737;15.2365;70;Nej
85250;Linköping;58.4166;15.6333;64;Nej
126310;Ljungaverk;62.4861;16.0694;85;Nej
63500;Ljungby;56.8203;13.9469;145;Nej
63510;Ljungby A;56.8525;13.8794;148.485;Ja
63050;Ljungbyhed;56.0752;13.2318;43;Nej
81130;Ljungskile;58.2159;11.9321;70;Nej
126460;Ljungå;62.7594;16.3141;220;Nej
116500;Ljusdal;61.8333;16.1333;140;Nej
122330;Ljusnedal;62.5493;12.6043;585;Ja
123070;Lofsdalen;62.1132;13.2841;610;Nej
74530;Lommaryd;57.8887;14.7342;240;Nej
162880;Luleå;65.62;22.1307;5;Nej
162860;Luleå Flygplats;65.5434;22.1193;17;Ja
162870;Luleå-Bergnäset;65.5746;22.11;12.156;Ja
53430;Lund;55.6932;13.2251;26.451;Ja
53440;Lund Lth;55.7142;13.2152;73;Nej
53460;Lund geografiska institutionen;55.71;13.2;73;Nej
128390;Lungö A;62.6417;18.0899;14.325;Ja
83460;Lurö;58.7904;13.2534;55;Nej
148330;Lycksele A;64.5481;18.713;210.07;Ja
97240;Lyckås;59.4;17.6666;15;Nej
83130;Längjum;58.2212;13.0607;95;Nej
137110;Lännäs;63.1663;17.6543;30;Nej
156730;Långvattnet;65.1049;16.6919;420;Nej
127140;Lörudden;62.2314;17.6623;2;Nej
151220;Lövånger;64.3636;21.3152;21;Nej
53220;Maglarp Aut;55.384;13.0595;17;Nej
85040;Malexander;58.0729;15.2352;195;Nej
85050;Malexander A;58.0716;15.233;197.27;Ja
180750;Malmberget;67.1681;20.6389;400;Ja
85240;Malmslätt;58.4004;15.5327;93;Ja
53360;Malmö;55.5782;13.0141;13;Nej
53370;Malmö 2;55.6048;12.9841;3;Nej
52350;Malmö A;55.5715;13.0708;19.757;Ja
103410;Malung;60.6717;13.7058;310;Nej
103420;Malung A;60.6765;13.7072;302.583;Ja
158750;Malå;65.1812;18.7421;308.635;Ja
158740;Malå-Brännan A;65.1512;18.5935;363.111;Ja
85520;Mariedamm;58.8509;15.164;132;Nej
97170;Mariefred;59.2661;17.2342;10;Nej
65130;Marielund;56.2182;15.5331;25;Nej
83440;Mariestad;58.7136;13.823;50;Ja
63280;Markaryd;56.4577;13.6159;113.846;Ja
172920;Markusvinsa;66.7259;22.894;163.362;Ja
155720;Marsliden;65.0251;15.3668;550;Nej
86330;Marviken;58.5491;16.8157;10;Nej
133180;Mattmar V;63.3054;13.8767;360;Nej
166910;Mierkenis A;66.6802;16.1053;613.982;Ja
166900;Mierkenis Aut;66.6798;16.1137;600;Nej
133630;Mo;63.3166;13.4833;330;Nej
104300;Mockfjärd;60.5074;14.9585;192;Nej
93360;Molkom;59.6166;13.75;93;Nej
73570;Molla;57.936;13.0668;190;Nej
104580;Mora A;60.9601;14.5041;195.417;Ja
77170;Mossen;57.2833;17.0042;10;Nej
85330;Motala Kraftverk;58.5471;15.0753;94;Nej
73560;Mullsjö;57.9166;13.8833;240;Nej
62130;Munka-Ljungby;56.2287;12.9834;20;Nej
144160;Munsvattnet;64.2734;14.451;520;Nej
183980;Muodoslompolo;67.9443;23.4441;240;Nej
170850;Murjek;66.4826;20.8813;260;Nej
160790;Myrheden;65.2984;20.2124;250;Nej
78320;Mästerby;57.4725;18.2739;36.385;Ja
75240;Målilla;57.3964;15.8315;100;Nej
75250;Målilla A;57.3845;15.8009;95.667;Ja
81060;Måseskär;58.0944;11.3348;14;Nej
81050;Måseskär A;58.0937;11.3312;14.973;Ja
66320;Mörbylånga;56.5256;16.39;5;Nej
133190;Mörsil;63.3183;13.6458;420.343;Ja
74630;Naglarp;57.4666;14.8833;250;Nej
191900;Naimakka;68.6779;21.5277;403;Nej
191910;Naimakka A;68.6762;21.5229;402.202;Ja
172680;Naisheden;66.5333;22.3666;95;Nej
170690;Nattavaara;66.7666;20.9666;330;Nej
170930;Nattavaara A;66.7516;20.9238;327.631;Ja
171920;Nattavaara by;66.7586;21.0537;350;Nej
83420;Naven A;58.6998;13.1109;53;Ja
191720;Nedre Soppero V;68.044;21.755;355;Nej
71190;Nidingen A;57.3036;11.9049;3.785;Ja
179950;Nikkaluokta;67.8488;19.0233;470;Nej
179960;Nikkaluokta A;67.8527;19.0212;466.765;Ja
114630;Noppikoski;61.5;14.85;340;Nej
95300;Nora;59.5164;15.047;91;Nej
134090;Norderön;63.1611;14.3661;320.608;Ja
81540;Nordkoster A;58.892;11.0038;33.362;Ja
139340;Nordmaling;63.5739;19.4875;4;Nej
128510;Nordvik;62.8485;18.0159;20;Nej
125170;Norrberg-Norrhög V;62.2632;15.6709;327;Nej
171780;Norriån;66.25;21.8;55;Nej
86360;Norrköping;58.606;16.2127;3;Nej
86350;Norrköping-Kungsängen;58.5842;16.2383;5;Nej
86340;Norrköping-SMHI;58.5828;16.147;40.334;Ja
86370;Norrköping-Sörby;58.6082;16.1212;27;Nej
98460;Norrtälje;59.7506;18.7091;25;Nej
98510;Norrtälje-Väsby;59.8524;18.7296;10;Nej
145260;Norråker;64.4309;15.6332;344;Nej
97160;Norsborg II;59.2524;17.7989;15;Nej
149540;Norsjö;64.9093;19.4746;296;Nej
149560;Norsjö A;64.9253;19.3744;309.576;Ja
97180;Nyckelby;59.3;17.7166;25;Nej
62140;Nyhamnsläge;56.2451;12.5401;12.454;Ja
86660;Nyköping;58.7665;16.98;23;Nej
86480;Nyköpings Flygplats;58.7833;16.9166;42;Nej
87570;Nynäshamn;58.919;17.9318;10;Nej
74390;Nässjö;57.6431;14.6895;305;Nej
78040;Näsudden Aut;57.0735;18.2222;5;Nej
74240;Nävelsjö;57.4042;14.891;215;Nej
137070;Offer;63.1492;17.7617;27;Nej
76530;Ogestad;57.8748;16.1689;81;Nej
64170;Olofström;56.2773;14.5177;65;Nej
134610;Ope;63.1966;14.7774;350;Nej
162980;Orrbyn;65.9446;22.116;15;Nej
107220;Orrskog;60.3833;17.4167;35;Nej
63220;Osby;56.3742;13.9376;90;Ja
52360;Oskarsgrundet Aut;55.597;12.8575;1;Nej
76160;Oskarshamn;57.267;16.4114;12.072;Ja
87400;Oxelösund;58.6772;17.1199;7.154;Ja
172940;Paharova A;66.8094;22.3315;227.643;Ja
183760;Pajala;67.2101;23.3928;168;Nej
183750;Pajala A;67.2036;23.3899;163.774;Ja
182910;Parkalompolo A;67.7301;22.8219;312.183;Ja
94450;Persberg;59.7497;14.2354;225;Nej
149340;Petisträsk A;64.5659;19.6943;258.047;Ja
161710;Pite-Rönnskär A;65.034;21.5609;4.878;Ja
161790;Piteå;65.2625;21.474;8.268;Ja
161770;Pitsund;65.23;21.52;8;Nej
169980;Porjus;66.9597;19.823;375;Nej
74440;Prästkulla;57.7236;14.9829;294.019;Ja
171810;Pålkem;66.3888;21.6098;265;Nej
171820;Pålkem M;66.3855;21.6167;261;Nej
136320;Ramsele;63.32;16.28;205;Nej
74490;Ramsjöholm;57.8429;14.4317;225;Ja
169930;Randijaur;66.761;19.3168;290;Nej
83280;Remningstorp;58.4529;13.6671;140;Nej
189720;Rensjön A;68.073;19.8351;493.651;Ja
150090;Rickleå fältstation;64.0875;20.9444;10;Nej
95490;Riddarhyttan;59.8085;15.5555;155;Nej
188830;Riksgränsen;68.4284;18.1302;508;Nej
72150;Ringhals;57.253;12.1032;10;Nej
72160;Ringhals Aut;57.2577;12.107;10;Nej
64600;Rinkaby;55.9833;14.2666;7;Nej
86570;Ripsa;58.9817;16.9168;40;Nej
108110;Risinge;60.1748;18.224;17.21;Nej
147420;Risträsk V;64.7343;17.4034;598;Nej
177920;Ritsem;67.7261;17.4718;521;Nej
177930;Ritsem A;67.7255;17.4668;541.214;Ja
78310;Roma;57.5069;18.4539;32;Nej
78300;Roma Aut;57.4998;18.4639;32;Nej
78290;Roma V;57.5436;18.4253;32;Nej
85010;Romanäs;58.0694;15.0222;155;Nej
65730;Ronneby;56.2;15.2833;10;Nej
65160;Ronneby-Bredåkra;56.2619;15.2742;58;Ja
72300;Rossared D;57.485;12.1997;15;Nej
64620;Ryd;56.45;14.7166;140;Nej
53180;Rynge V;55.4741;13.6683;48;Nej
75160;Ryningsnäs;57.2666;15.9333;90;Nej
105200;Rämshyttan;60.3333;15.2;260;Nej
73480;Rångedala A;57.7846;13.1642;297.467;Ja
140490;Röbäcksdalen;63.8129;20.2397;10;Nej
162790;Rödkallen A;65.3121;22.3709;1.932;Ja
81040;Rörastrand;58.0578;11.6454;9.465;Ja
112080;Rörbäcksnäs;61.1269;12.8226;465;Nej
65360;Rörsbo;56.601;15.5192;140;Nej
98260;Röskär;59.4166;18.1666;15;Nej
134150;Rösta;63.2443;14.5535;360;Nej
116230;Röstebo;61.3882;16.4295;115;Nej
182810;Saittarova A;67.3363;22.2288;240.652;Ja
96550;Sala;59.9036;16.6579;57.575;Ja
96560;Sala A;59.9093;16.6843;56.575;Ja
159680;Saltmyran;65.4166;19.5;350;Nej
178680;Saltoluokta;67.3833;18.55;393;Nej
107050;Sandbro;60.0042;17.5833;35;Nej
76000;Sandbäckshult;56.9835;16.283;37;Nej
54230;Sandhammaren;55.3872;14.1947;4;Nej
98170;Sandhamn D;59.29;18.9146;2.049;Ja
72340;Sandsjöbacka;57.5571;12.0387;50;Nej
106360;Sandviken;60.6103;16.7896;65;Nej
54390;Sankt Olof;55.6402;14.1273;130;Nej
170920;Sarkavara;66.7374;20.3605;385;Nej
178850;Satis;67.5009;18.3911;425;Nej
145580;Saxnäs V;64.9678;15.3791;542;Nej
127220;Sidsjö D;62.3809;17.2854;60;Nej
135380;Sikåskälen;63.6198;15.0929;490;Nej
104530;Siljansfors;60.8846;14.3786;260;Nej
126440;Sillre V;62.7629;16.7387;210;Nej
63440;Simlångsdalen;56.7154;13.1247;75;Nej
83050;Simonstorp;58.0788;13.3957;190;Nej
86470;Simonstorp_ö;58.7847;16.1544;80;Nej
54330;Simrishamn;55.5449;14.3578;8;Nej
63450;Singeshult;56.7429;13.3608;165;Nej
108100;Singö;60.1595;18.7436;12;Nej
64630;Sjöaryd;56.5166;14.75;150;Nej
139630;Skag;63.1992;19.0462;10;Nej
139110;Skagsudde;63.1885;19.0194;13;Nej
139120;Skagsudde A;63.1872;19.0199;9.343;Ja
83270;Skara;58.4072;13.4407;115;Ja
83620;Skara;58.4;13.45;116;Nej
83240;Skara-Ekeberg;58.4;13.55;130;Nej
83200;Skara-Stenum;58.37;13.52;130;Nej
83260;Skara-Västerskog;58.38;13.33;105;Nej
98160;Skarpö A;59.3446;18.7404;19.287;Ja
66500;Skedemosse;56.823;16.7337;25;Nej
150450;Skellefteå;64.7584;20.9478;40;Nej
151380;Skellefteå Flygplats;64.6244;21.0717;48;Ja
105070;Skeppsmora V;60.123;15.1226;246;Nej
54290;Skillinge A;55.489;14.3144;4.016;Ja
95500;Skinnskatteberg;59.8333;15.6833;113;Nej
53670;Skivarp;55.4334;13.5805;20;Nej
85280;Skärkind;58.472;16.0017;60;Nej
124390;Skålan;62.65;14.1666;452;Nej
63230;Skånes Fagerhult;56.3666;13.4666;118;Nej
83230;Skövde;58.3949;13.8436;150;Ja
53200;Smygehuk;55.3376;13.3563;5;Nej
81220;Smögen;58.3571;11.2276;20;Nej
84580;Snavlunda;58.9671;14.8987;144;Nej
137100;Sollefteå;63.1667;17.2802;20;Nej
97560;Solsidan;59.4;17.5639;15;Nej
106060;Sonnbo;60.1197;16.2838;89;Nej
157860;Sorsele;65.537;17.529;344.698;Ja
74340;Spinkabo;57.5653;14.4693;285;Nej
88580;Stabbo;58.9733;18.4493;7;Nej
53720;Staffanstorp;55.65;13.2166;20;Nej
176800;Staloluokta;67.4083;16.4199;600;Nej
86440;Stavsjö Aut;58.7333;16.3667;60;Nej
53540;Stehag;55.9033;13.3995;60;Nej
154730;Stekenjokk A;65.0929;14.5055;1037.322;Ja
96210;Stenkvista;59.3221;16.5577;35;Nej
157720;Stensele;65.0706;17.1536;325;Nej
54400;Stenshuvud;55.6646;14.2595;112;Nej
78360;Stenstugu Försöksgård;57.5979;18.4507;45;Nej
167860;Stenudden;66.5343;17.6677;453;Nej
106270;Stjärnsund;60.4551;16.2662;130;Nej
98210;Stockholm;59.3417;18.0549;43.133;Ja
98230;Stockholm A;59.3417;18.0549;43.133;Ja
97400;Stockholm-Arlanda;59.6269;17.9545;42;Ja
97200;Stockholm-Bromma;59.3537;17.9513;14;Ja
77180;Stora Karlsö;57.2893;17.9623;40;Nej
73090;Stora Segerstad;57.1461;13.5609;180;Nej
178860;Stora Sjöfallet A;67.4948;18.2907;426.536;Ja
105220;Stora Spånsberget A;60.3817;15.1374;492.257;Ja
133570;Stora Stensjön Aut;63.9687;13.7251;680;Nej
158850;Storberg;65.5085;18.9505;453;Nej
112530;Storbo V;61.8403;12.288;661;Nej
136360;Storfinnforsen;63.595;16.1846;232;Nej
113610;Storfjället-Sälen;61.1666;13.1166;770;Nej
94320;Storfors;59.5365;14.28;120;Nej
117610;Storjungfrun;61.1666;17.3333;10;Nej
149570;Storliden;64.95;19.4833;390;Nej
132620;Storlien;63.3158;12.1009;595;Nej
132170;Storlien-Storvallen A;63.2826;12.1218;583.124;Ja
132180;Storlien-Visjövalen;63.3028;12.1253;642;Nej
98140;Stormyra;59.2024;18.3272;15.646;Ja
159600;Stormyrheden;65.78;19.38;445;Nej
123480;Storsjö Kapell;62.8016;13.0731;580;Nej
163920;Storöhamn;65.7306;23.0924;7;Nej
163900;Storön A;65.6972;23.0959;2.394;Ja
74650;Strandvallen;57.85;14.2833;110;Nej
97270;Strängnäs;59.402;17.0605;25;Nej
96030;Strängstorp;59.05;16.2166;62;Nej
81560;Strömstad;58.9333;11.2;20;Nej
135520;Strömsund;63.8548;15.5894;373;Nej
53300;Sturup;55.5231;13.3787;72;Ja
94580;Ställdalen;59.9382;14.8884;247.176;Ja
94660;Stångfallet;59.95;14.8833;230;Nej
159970;Suddesjaur;65.8952;19.0929;342;Nej
170790;Sudok;66.3006;20.424;170;Nej
161680;Sunderbyn;65.7;21.85;20;Nej
136640;Sundmo;63.5;16.7;200;Nej
127240;Sundsvall;62.4066;17.2664;35;Nej
127230;Sundsvall-Råsta V;62.4306;17.3447;83;Nej
127310;Sundsvalls Flygplats;62.5246;17.441;4;Ja
93520;Sunne A;59.8639;13.1166;108.947;Ja
93340;Sutterhöjden;59.5833;13.9333;153;Nej
115050;Svabensverk;61.0442;15.7921;240;Nej
53560;Svalöv;55.9081;13.1174;72;Nej
98490;Svanberga A;59.8317;18.6313;14.821;Ja
181890;Svappavaara;67.6501;21.0558;327;Nej
81340;Svarteborg;58.5707;11.5572;70;Nej
66460;Svartingstorp;56.786;16.3296;20;Nej
97220;Svartsjö;59.3595;17.7392;10;Nej
124020;Sveg;62.0191;14.1904;432;Nej
124030;Sveg A;62.0462;14.4069;357.187;Ja
99330;Svenska Björn Aut;59.55;20.02;1;Nej
99270;Svenska Högarna;59.4445;19.5059;12;Ja
99280;Svenska Högarna A;59.4423;19.5022;11.811;Ja
140200;Sydostbrotten Aut;63.3806;20.0993;24;Nej
132030;Sylarna A;63.0438;12.2748;1030.11;Ja
81010;Säby;58.0201;11.6015;10;Nej
52660;Säbyholm;55.9;12.8333;10;Nej
92100;Säffle;59.1407;12.9336;52.926;Ja
113100;Sälen;61.1691;13.2593;360;Nej
113070;Sälen-Högfjället V;61.1583;13.1138;751;Nej
113410;Särna;61.7068;13.1335;437;Nej
113420;Särna A;61.6912;13.1865;425;Ja
105210;Säter;60.35;15.75;160;Nej
161920;Sävast V;65.7527;21.765;9;Nej
71470;Säve;57.7786;11.8824;20;Nej
71500;Säve-Skålvisered;57.8305;11.92;20;Nej
105410;Sågmyra;60.7004;15.3263;257;Nej
64390;Sånnahult;56.5875;14.8014;175;Nej
82260;Såtenäs;58.4358;12.7075;54;Ja
82250;Såtenäs D;58.4397;12.6928;55;Nej
99450;Söderarm A;59.7531;19.4054;14.006;Ja
117170;Söderhamn;61.3198;17.0967;10;Nej
117160;Söderhamn A;61.2691;17.0983;26;Nej
97120;Södertälje;59.2141;17.6291;43.221;Ja
127630;Söråker;62.5166;17.5166;45;Nej
113110;Tandådalen Aut;61.1766;13.0164;830;Nej
178970;Tarfala A;67.9124;18.6101;1143.653;Ja
53580;Teckomatorp;55.8778;13.0917;30;Nej
137560;Tegelträsk;63.9515;17.904;380;Nej
84630;Tidan;58.55;14;90;Nej
73660;Tinghalla;57.9666;13.85;278;Nej
64320;Tingsryd-Degerhaga;56.5375;14.8989;162.965;Ja
169790;Tjåkaape Mo;66.3002;19.2;581;Ja
96480;Tomta;59.8;16.55;55;Nej
74300;Tomtabacken A;57.4981;14.4645;355.895;Ja
188840;Tornehamn Aut;68.4324;18.6281;512;Nej
189760;Torneträsk;68.2201;19.7123;393;Nej
126290;Torpshammar A;62.4943;16.2774;99;Ja
103080;Torsby;60.1075;12.9908;127;Nej
71430;Torslanda;57.7166;11.7833;3;Nej
63600;Torup;56.9632;13.0712;85;Nej
63590;Torup A;56.9494;13.0601;132.532;Ja
76380;Tovehult;57.642;16.5682;25;Nej
84020;Tranås;58.0389;14.9853;155;Nej
85020;Tranås Aut;58.03;15.0206;185;Nej
53230;Trelleborg;55.381;13.1279;5;Nej
133160;Trillevallen V;63.2631;13.2166;611;Nej
53510;Trollenäs;55.8666;13.25;55;Nej
82620;Trollhättan;58.3;12.3166;42;Nej
82190;Trollhättans Flygplats;58.3141;12.3292;43;No
87540;thong;58.9;17.5666;5;No
71360;Trubaduren Aut;57596;11.6352;1;No
113230;Trängslet;61.3804;13.7273;425;Yes
97100;Tullinge A;59.1785;17.9093;44858;Yes
86010;tulle Inge;58.0166;16.0833;110;No
122260;Tännäs A;62.4494;12.6676;723013;Yes
155910;Tarnaby;65.7166;15:25;450;No
72520;Uddabo;57.8701;12.7074;245;No
81210;Uddevalla;58355;11.9541;10;No
54580;Ugerup;55.9657;14.1168;20;No
72090;Ullared A;57.1134;12.7732;122356;Yes
128590;Airdrie;62.9948;18.1794;45;No
73470;Ulricehamn;57.8052;13.4083;175;Yes
135500;Ulriksfors;63.8345;15.6164;285;No
97490;Ultuna;59.8139;17.6469;15;No
97210;Ulvhäll;59.3619;17044;5;No
147460;Ulvoberg;64.7627;17.2165;520;No
114360;Ulvsjö;61.6022;14.1847;585;No
64650;Ulvö;56.6;14.6472;145;No
140500;Umeå;63.8302;20.2901;10;No
140480;Umeå Airport;63.7947;20.2918;14;Yes
108170;Under stone;60.2761;18.9227;12;No
133200;Undersåker;63.3269;13.3826;330;No
65020;Ungskär;56.0419;15.8081;2;No
107270;Untra;60.4393;17.3409;35;No
97520;Uppsala;59.8585;17.6252;13;No
97510;Uppsala Aut;59.8586;17.6253;13;Yes
97530;Uppsala Airport;59.8953;17.5935;21;Yes
81640;Ursholmen;58.8333;11;6;No
64290;Urshult-Kunninge;56.4782;14.8024;145;No
151640;Ursviken;64.7166;21:15;5;No
64400;Uråsa;56.6833;14.95;167;No
55570;The cutout A;55.9557;15.7077;3;Yes
95640;Uttersberg;59.75;15.6666;95;No
107450;Utvalnäs Aut;60.7547;17.3574;5;No
88570;Uto;58.9502;18.2669;40;No
169860;Vajmat V;66505;19675;325;No
78030;whales;57.0278;18.2194;15;No
86130;Valdemarsvik;58.2148;16.5828;10;No
96000;Valla;59.0185;16.3709;50;No
72080;Varberg;57.1093;12.2961;33965;Yes
93240;Varpnäs;59.4042;13.2667;68;No
105630;Vassbo;60.5333;15.5333;120;No
188810;Vassijaure;68.4316;18.2839;537;No
52550;Vein;55.9;12.7166;20;No
75630;Vetlanda;57.4166;15.0666;200;No
160960;Vidsel;65.8801;20.1315;180;Yes
160970;Vidsel Mo;65.8769;20.1543;182;Yes
137030;Viksbäcken;63.05;17.75;6;No
107020;Viksta;60.0694;17.6181;103;No
146350;Vilhelmina A;64.5798;16.8386;348198;Yes
94170;Villingsberg;59.2833;14.7;148;No
75400;Vimmerby;57.6687;15.8518;110;No
156940;Vindel-Björkheden;65.8211;16.7114;350;No
157930;Vindel-Storsjö;65.7666;5.17;345;No
149120;Vindeln Sunnansjönäs;64.1386;19.7618;237;Yes
71380;Vinga A;57.6322;11.6048;18205;Yes
95030;Vingåker;59.0782;15.8163;60;Nej
106500;Vintjärn;60.8321;16.0581;348;Nej
78390;Visby;57.636;18.2891;28;Nej
78400;Visby Flygplats;57.6614;18.3428;42;Ja
84060;Visingsö;58.0908;14.401;110;Nej
84050;Visingsö A;58.0948;14.4058;93.582;Ja
65310;Vissefjärda;56.5124;15.6235;114;Nej
181900;Vittangi;67.6943;21.6335;250;Ja
166870;Vuoggatjålme;66.5759;16.3511;500;Nej
98590;Väddö;59.9833;18.8166;10;Nej
81350;Väderöarna A;58.576;11.0661;22.356;Ja
81620;Väderöbod;58.55;11.0333;7;Nej
82230;Vänersborg;58.3543;12.3585;47.996;Ja
97620;Vängsö;59.1166;17.2;15;Nej
139540;Vännäs;63.9187;19.6986;87;Nej
98200;Värtan;59.35;18.1;20;Nej
107180;Väsby;60.3;17.4333;35;Nej
150270;Västanträsk;64.4502;20.4055;140;Nej
85270;Västerlösa;58.4447;15.3772;75;Nej
83340;Västerplana;58.5586;13.3508;128;Nej
76470;Västervik;57.7213;16.4683;33;Nej
96350;Västerås;59.5972;16.6001;15.836;Ja
96370;Västerås;59.6166;16.55;10;Nej
138070;Västmarkum A;63.1243;18.2518;141.392;Ja
107530;Västra Banken Aut;60.88;17.93;25;Nej
85630;Västra Ny;58.65;15.05;120;Nej
64520;Växjö;56.8427;14.8176;170;Nej
64510;Växjö A;56.8463;14.8296;198.861;Ja
64560;Växjö-Kronoberg;56.9252;14.7333;182;Nej
82010;Vårgårda-Hägrunga;58.0166;12.8333;148;Nej
73190;Våthultström;57.3166;13.4333;163;Nej
52620;Weibullsholm;55.8722;12.8556;5;Nej
97070;Wiad;59.1116;17.7219;12;Nej
173900;Ylinenjärvi A;66.6223;23.4635;133.672;Ja
53260;Ystad;55.441;13.8278;32;Nej
124110;Ytterhogdal;62.1817;14.9478;263.585;Ja
147170;Yxsjö;64.2833;17.5166;350;Nej
85490;Zinkgruvan;58.8061;15.1253;213.468;Ja
84470;Älgarås;58.7906;14.3188;130;Nej
114140;Älvdalen A;61.2536;14.0355;251.633;Ja
114160;Älvdalen II;61.2549;14.0348;250;Nej
94560;Älvhöjden;59.9978;14.7889;340;Nej
161690;Älvsby Skogsskola;65.6833;21.0666;40;Nej
161910;Älvsbyn A;65.6691;21.062;43.384;Ja
62710;Ängelholm;56.25;12.85;10;Nej
73690;Äspered;57.9331;13.1805;294;Nej
97150;Åkers Styckebruk;59.2511;17.0879;20;Nej
83540;Åkershus;58.898;13.2517;50;Nej
97700;Ålandsdal;59.8663;17.2799;40;Nej
179740;Ålloluokta;67.1261;19.4976;370;Nej
134620;Ålviken;63.8825;14.4803;325;Nej
134520;Ålåsen;63.8683;14.6063;450;Nej
106570;Åmot A;60.9614;16.4279;161.678;Ja
106580;Åmotsbruk;60.9645;16.4631;145;Nej
92030;Åmål;59.0542;12.6969;60;Nej
133230;Åre;63.4;13.1;440;Nej
133250;Åre-Björnänge V;63.3738;13.1607;403;Nej
133260;Åreskutan Aut;63.4304;13.0746;1280;Nej
92380;Årjäng;59.3833;12.1666;130;Nej
82090;Åsbräcka-Torpabron V;58.1997;12.1541;17;Nej
75100;Åseda;57.1462;15.3987;230;Nej
147100;Åsele;64.1598;17.3494;318.481;Ja
147090;Åsele A;64.165;17.3153;307.712;Ja
94050;Åtorp;59.0966;14.3678;105;Ja
85130;Åtvidaberg;58.2;15.9833;100;Nej
82650;Ödebyn;58.7833;12.1833;150;Nej
84140;Ödeshög D;58.2546;14.653;120.381;Ja
82660;Ödskölt;58.8458;12.1472;175;Nej
85220;Öjebro;58.3833;15.2;85;Nej
161800;Öjebyn;65.3566;21.389;5;Nej
87520;Ökna;59.0833;16.3167;35;Nej
77220;Ölands norra udde;57.3665;17.0976;2.039;Ja
77210;Ölands norra udde A;57.3671;17.0954;2.762;Ja
66040;Ölands södra grund Aut;56.07;16.68;1;Nej
66120;Ölands södra udde;56.1957;16.401;3;Nej
66110;Ölands södra udde A;56.1977;16.4005;1.53;Ja
66400;Ölandsbron V;56.6669;16.4609;0;Nej
66630;Ölvingstorp;56.6166;16.1166;15;Nej
84260;Örberga;58.4274;14.826;105;Nej
72290;Örby;57.4833;12.7;90;Nej
95160;Örebro;59.2782;15.1574;35;Nej
95620;Örebro;59.2448;15.2854;36;Nej
95170;Örebro Aut;59.2671;15.2686;23;Nej
95130;Örebro Flygplats;59.2289;15.0455;53;Ja
95140;Örebro Flygplats;59.2334;15.05;57;Nej
108640;Öregrund;60.3333;18.4333;7;Nej
52510;Örja Aut;55.8798;12.8705;11;No
138240;Örnsköldsvik Airport;63.4119;18.9797;108;Yes
108320;Örskär A;60.5256;18.3729;6539;Yes
53470;Örtofta;55.7833;13:25;20;No
78280;Östergarnsholm A;57.4408;18.9839;8,127;Yes
134100;Ostersund;63.1736;14.6786;345;No
102190;Östmark-Lämbacken;60306;12.6977;160;No
102200;Östmark-Rännberg;60.3328;12.6775;198;No
102210;Östmark-Röjdåfors ridge;60.3548;12.6491;308;No
102170;Östmark-ridges;60.2788;12.8538;135;Yes
172790;Överkalix-Svartbyn;66.2646;22.8365;46;No
172770;Överkalix-Svartbyn A;66.2618;22.8427;61024;Yes
173810;Övertorneå;66386;23.6155;59508;Yes
133470;Överäng;63.7788;13.0734;450;No
86700;Upper Gränsö;58.35;16.8333;5;No